{"epri-1":{"id":"epri-1","identificador":"Comunidad Camilo Cienfuegos","municipio":"Consolación del Sur","provincia":"Pinar del Río","dpacode_municipio":"21.07","dpacode_provincia":"21","lon":-83.37809801101685,"lat":22.553424911624475,"abierto":false,"chequeado":true},"epri-2":{"id":"epri-2","identificador":"Zona La Ceiba","municipio":"Guane","provincia":"Pinar del Río","dpacode_municipio":"21.11","dpacode_provincia":"21","lon":-84.087038,"lat":22.202105,"abierto":false,"chequeado":true},"epri-3":{"id":"epri-2","identificador":"La Palma","municipio":"La Palma","provincia":"Pinar del Río","dpacode_municipio":"21.05","dpacode_provincia":"21","lon":-83.554576,"lat":22.748147,"abierto":true,"chequeado":true},"eart-1":{"id":"eart-1","identificador":"Escuela Internacional de Cine y Televisión de San Antonio de los Baños","municipio":"San Antonio de los Baños","provincia":"Artemisa","dpacode_municipio":"22.06","dpacode_provincia":"22","lon":-82.541029,"lat":22.917551,"abierto":false,"chequeado":true},"eart-2":{"id":"eart-2","identificador":"Área de salud 'Pedro Esperón'","municipio":"Bauta","provincia":"Artemisa","dpacode_municipio":"22.05","dpacode_provincia":"22","lon":-82.548233,"lat":22.979996,"abierto":false,"chequeado":true},"eart-3":{"id":"eart-3","identificador":"Baracoa","municipio":"Bauta","provincia":"Artemisa","dpacode_municipio":"22.05","dpacode_provincia":"22","lon":-82.558287,"lat":23.049569,"abierto":false,"chequeado":true},"eart-4":{"id":"eart-4","identificador":"Mariel","municipio":"Mariel","provincia":"Artemisa","dpacode_municipio":"22.02","dpacode_provincia":"22","lon":-82.77685,"lat":22.987275,"abierto":true,"chequeado":true},"eart-5":{"id":"eart-5","identificador":"San Cristóbal","municipio":"San Cristóbal","provincia":"Artemisa","dpacode_municipio":"22.11","dpacode_provincia":"22","lon":-83.048878,"lat":22.712383,"abierto":true,"chequeado":true},"elha-1":{"id":"elha-1","identificador":"Consejo Popular El Carmelo","municipio":"Plaza de la Revolución","provincia":"La Habana","dpacode_municipio":"23.02","dpacode_provincia":"23","lon":-82.40663,"lat":23.134915,"abierto":false,"chequeado":true},"elha-2":{"id":"elha-2","identificador":"Consejo Popular Vedado","municipio":"Plaza de la Revolución","provincia":"La Habana","dpacode_municipio":"23.02","dpacode_provincia":"23","lon":-82.394147,"lat":23.13381,"abierto":false,"chequeado":true},"elha-3":{"id":"elha-3","identificador":"Consejo Popular Buenos Aires","municipio":"Cerro","provincia":"La Habana","dpacode_municipio":"23.10","dpacode_provincia":"23","lon":-82.373719,"lat":23.112644,"abierto":false,"chequeado":true},"elha-4":{"id":"elha-4","identificador":"Consejo Popular Lotería","municipio":"Cotorro","provincia":"La Habana","dpacode_municipio":"23.15","dpacode_provincia":"23","lon":-82.252791,"lat":23.041131,"abierto":false,"chequeado":true},"elha-5":{"id":"elha-5","identificador":"Consejo Popular San Agustín","municipio":"La Lisa","provincia":"La Habana","dpacode_municipio":"23.12","dpacode_provincia":"23","lon":-82.46949,"lat":23.062503,"abierto":false,"chequeado":true},"elha-6":{"id":"elha-6","identificador":"Consejo Popular Acosta","municipio":"Diez de Octubre","provincia":"La Habana","dpacode_municipio":"23.09","dpacode_provincia":"23","lon":-82.361671,"lat":23.090854,"abierto":false,"chequeado":true},"elha-7":{"id":"elha-7","identificador":"Consejo Popular Guiteras","municipio":"Habana del Este","provincia":"La Habana","dpacode_municipio":"23.06","dpacode_provincia":"23","lon":-82.306841,"lat":23.144922,"abierto":false,"chequeado":false},"elha-8":{"id":"elha-8","identificador":"Guaicanamar","municipio":"Regla","provincia":"La Habana","dpacode_municipio":"23.05","dpacode_provincia":"23","lon":-82.331909,"lat":23.126879,"abierto":false,"chequeado":false},"elha-9":{"id":"elha-9","identificador":"Los Sitios","municipio":"Centro Habana","provincia":"La Habana","dpacode_municipio":"23.03","dpacode_provincia":"23","lon":-82.37103,"lat":23.129591,"abierto":false,"chequeado":false},"elha-10":{"id":"elha-10","identificador":"Dragones","municipio":"Centro Habana","provincia":"La Habana","dpacode_municipio":"23.03","dpacode_provincia":"23","lon":-82.36138,"lat":23.133651,"abierto":false,"chequeado":false},"elha-11":{"id":"elha-11","identificador":"Cayo Hueso","municipio":"Centro Habana","provincia":"La Habana","dpacode_municipio":"23.03","dpacode_provincia":"23","lon":-82.373594,"lat":23.134378,"abierto":false,"chequeado":false},"elha-12":{"id":"elha-12","identificador":"Consejo Popular Pocito-Palmar","municipio":"Marianao","provincia":"La Habana","dpacode_municipio":"23.11","dpacode_provincia":"23","lon":-82.430944,"lat":23.065716,"abierto":false,"chequeado":false},"elha-13":{"id":"elha-13","identificador":"Centro Provincial de Protección Social","municipio":"Cotorro","provincia":"La Habana","dpacode_municipio":"23.15","dpacode_provincia":"23","lon":-82.290896,"lat":23.013804,"abierto":false,"chequeado":false},"elha-14":{"id":"elha-14","identificador":"Consejo Popular Luyanó Moderno","municipio":"San Miguel del Padrón","provincia":"La Habana","dpacode_municipio":"23.08","dpacode_provincia":"23","lon":-82.323142,"lat":23.095841,"abierto":false,"chequeado":false},"elha-15":{"id":"elha-15","identificador":"Consejo Popular Latinoamericano","municipio":"Cerro","provincia":"La Habana","dpacode_municipio":"23.10","dpacode_provincia":"23","lon":-82.374755,"lat":23.118224,"abierto":false,"chequeado":true},"elha-16":{"id":"elha-16","identificador":"Unidad Constructora Militar #4 'Antonio Lamoru Pistero'","municipio":"La Lisa","provincia":"La Habana","dpacode_municipio":"23.12","dpacode_provincia":"23","lon":-82.481549,"lat":23.049497,"abierto":false,"chequeado":true},"elha-17":{"id":"elha-17","identificador":"San Joaquín","municipio":"Cerro","provincia":"La Habana","dpacode_municipio":"23.10","dpacode_provincia":"23","lon":-82.367417,"lat":23.115723,"abierto":false,"chequeado":true},"elha-18":{"id":"elha-18","identificador":"Colón","municipio":"Centro Habana","provincia":"La Habana","dpacode_municipio":"23.03","dpacode_provincia":"23","lon":-82.359812,"lat":23.1412384,"abierto":false,"chequeado":true},"elha-19":{"id":"elha-19","identificador":"Manzana 180 del Policlínico 'Antonio Pulido Humarán'","municipio":"La Lisa","provincia":"La Habana","dpacode_municipio":"23.12","dpacode_provincia":"23","lon":-82.467208,"lat":23.039465,"abierto":false,"chequeado":true},"elha-20":{"id":"elha-20","identificador":"Santa Felicia","municipio":"Marianao","provincia":"La Habana","dpacode_municipio":"23.11","dpacode_provincia":"23","lon":-82.424428,"lat":23.087178,"abierto":false,"chequeado":true},"elha-21":{"id":"elha-21","identificador":"Tarará","municipio":"Habana del Este","provincia":"La Habana","dpacode_municipio":"23.06","dpacode_provincia":"23","lon":-82.205415,"lat":23.175457,"abierto":false,"chequeado":true},"elha-22":{"id":"elha-22","identificador":"Mégano","municipio":"Habana del Este","provincia":"La Habana","dpacode_municipio":"23.06","dpacode_provincia":"23","lon":-82.196748,"lat":23.174473,"abierto":true,"chequeado":true},"elha-23":{"id":"elha-23","identificador":"Guanabo","municipio":"Habana del Este","provincia":"La Habana","dpacode_municipio":"23.06","dpacode_provincia":"23","lon":-82.144399,"lat":23.165774,"abierto":false,"chequeado":true},"elha-24":{"id":"elha-24","identificador":"La Lisa","municipio":"La Lisa","provincia":"La Habana","dpacode_municipio":"23.12","dpacode_provincia":"23","lon":-82.465954,"lat":23.056496,"abierto":false,"chequeado":true},"elha-25":{"id":"elha-25","identificador":"1rq y 70","municipio":"Playa","provincia":"La Habana","dpacode_municipio":"23.01","dpacode_provincia":"23","lon":-82.438637,"lat":23.11246,"abierto":false,"chequeado":true},"elha-26":{"id":"elha-26","identificador":"Puentes Grandes","municipio":"Plaza de la Revolución","provincia":"La Habana","dpacode_municipio":"23.02","dpacode_provincia":"23","lon":-82.39656,"lat":23.106439,"abierto":true,"chequeado":true},"elha-27":{"id":"elha-27","identificador":"La Castellana","municipio":"Arroyo Naranjo","provincia":"La Habana","dpacode_municipio":"23.14","dpacode_provincia":"23","lon":-82.35982,"lat":23.076705,"abierto":true,"chequeado":true},"elha-28":{"id":"elha-28","identificador":"Molinos de Regla","municipio":"Regla","provincia":"La Habana","dpacode_municipio":"23.05","dpacode_provincia":"23","lon":-82.337124,"lat":23.119828,"abierto":true,"chequeado":true},"elha-29":{"id":"elha-29","identificador":"Mantilla","municipio":"Arroyo Naranjo","provincia":"La Habana","dpacode_municipio":"23.14","dpacode_provincia":"23","lon":-82.339073,"lat":23.068205,"abierto":true,"chequeado":true},"elha-30":{"id":"elha-30","identificador":"Párraga","municipio":"Arroyo Naranjo","provincia":"La Habana","dpacode_municipio":"23.14","dpacode_provincia":"23","lon":-82.356845,"lat":23.062434,"abierto":true,"chequeado":true},"elha-31":{"id":"elha-31","identificador":"ICRT","municipio":"Plaza de la Revolución","provincia":"La Habana","dpacode_municipio":"23.02","dpacode_provincia":"23","lon":-82.383062,"lat":23.140234,"abierto":true,"chequeado":true},"elha-32":{"id":"elha-32","identificador":"Pulido Humarán","municipio":"La Lisa","provincia":"La Habana","dpacode_municipio":"23.12","dpacode_provincia":"23","lon":-82.46623,"lat":23.039915,"abierto":true,"chequeado":true},"elha-33":{"id":"elha-33","identificador":"Santiago de las Vegas","municipio":"Boyeros","provincia":"La Habana","dpacode_municipio":"23.13","dpacode_provincia":"23","lon":-82.384571,"lat":22.970988,"abierto":true,"chequeado":true},"elha-34":{"id":"elha-34","identificador":"Área de Salud 'Turcios Lima'","municipio":"Diez de Octubre","provincia":"La Habana","dpacode_municipio":"23.09","dpacode_provincia":"23","lon":-82.376028,"lat":23.100639,"abierto":true,"chequeado":true},"elha-35":{"id":"elha-35","identificador":"Diez de Octubre","municipio":"Diez de Octubre","provincia":"La Habana","dpacode_municipio":"23.09","dpacode_provincia":"23","lon":-82.365274,"lat":23.090495,"abierto":true,"chequeado":true},"elha-36":{"id":"elha-36","identificador":"Reparto Eléctrico","municipio":"Arroyo Naranjo","provincia":"La Habana","dpacode_municipio":"23.14","dpacode_provincia":"23","lon":-82.33268,"lat":23.045858,"abierto":true,"chequeado":true},"emay-1":{"id":"emay-1","identificador":"Comunidad La Ruda","municipio":"San José de las Lajas","provincia":"Mayabeque","dpacode_municipio":"24.02","dpacode_provincia":"24","lon":-82.25974,"lat":22.853941,"abierto":false,"chequeado":true},"emat-1":{"id":"emat-1","identificador":"Hotel Memories Varadero","municipio":"Cárdenas","provincia":"Matanzas","dpacode_municipio":"25.02","dpacode_provincia":"25","lon":-81.145032,"lat":23.199094,"abierto":false,"chequeado":true},"emat-2":{"id":"emat-2","identificador":"Consejo Popular El Naranjal","municipio":"Matanzas","provincia":"Matanzas","dpacode_municipio":"25.01","dpacode_provincia":"25","lon":-81.598202,"lat":23.037148,"abierto":false,"chequeado":true},"emat-3":{"id":"emat-3","identificador":"Hospital Julio Aristegui Villamil","municipio":"Cárdenas","provincia":"Matanzas","dpacode_municipio":"25.02","dpacode_provincia":"25","lon":-81.206305,"lat":23.036355,"abierto":false,"chequeado":true},"emat-4":{"id":"emat-4","identificador":"Santa Marta","municipio":"Cárdenas","provincia":"Matanzas","dpacode_municipio":"25.02","dpacode_provincia":"25","lon":-81.28974,"lat":23.120628,"abierto":true,"chequeado":true},"evcl-1":{"id":"evcl-1","identificador":"Consejo Popular Camajuaní Dos","municipio":"Camajuaní","provincia":"Villa Clara","dpacode_municipio":"26.05","dpacode_provincia":"26","lon":-79.7182,"lat":22.4529,"abierto":false,"chequeado":true},"evcl-2":{"id":"evcl-2","identificador":"Consejo Popular José María Pérez","municipio":"Camajuaní","provincia":"Villa Clara","dpacode_municipio":"26.05","dpacode_provincia":"26","lon":-79.6365,"lat":22.4377,"abierto":false,"chequeado":true},"evcl-3":{"id":"evcl-3","identificador":"Hogar de Ancianos","municipio":"Santa Clara","provincia":"Villa Clara","dpacode_municipio":"26.09","dpacode_provincia":"26","lon":-79.9585,"lat":22.3907,"abierto":false,"chequeado":true},"evcl-4":{"id":"evcl-4","identificador":"Poligráfico Enrique Núñez Rodríguez","municipio":"Santa Clara","provincia":"Villa Clara","dpacode_municipio":"26.09","dpacode_provincia":"26","lon":-79.933302,"lat":22.430672,"abierto":false,"chequeado":true},"evcl-5":{"id":"evcl-5","identificador":"Camajuaní","municipio":"Camajuaní","provincia":"Villa Clara","dpacode_municipio":"26.05","dpacode_provincia":"26","lon":-79.723267,"lat":22.468899,"abierto":true,"chequeado":true},"essp-1":{"id":"essp-1","identificador":"Cabaiguán I","municipio":"Cabaiguán","provincia":"Sancti Spíritus","dpacode_municipio":"28.04","dpacode_provincia":"28","lon":-79.5232,"lat":22.1429,"abierto":false,"chequeado":true},"essp-2":{"id":"essp-2","identificador":"Cabaiguán II","municipio":"Cabaiguán","provincia":"Sancti Spíritus","dpacode_municipio":"28.04","dpacode_provincia":"28","lon":-79.4847,"lat":22.0812,"abierto":false,"chequeado":true},"essp-3":{"id":"essp-3","identificador":"Zaza del Medio","municipio":"Taguasco","provincia":"Sancti Spíritus","dpacode_municipio":"28.03","dpacode_provincia":"28","lon":-79.366034,"lat":21.993348,"abierto":false,"chequeado":true},"ecav-1":{"id":"ecav-1","identificador":"Consejo Popular Simón de Reyes","municipio":"Venezuela","provincia":"Ciego de Ávila","dpacode_municipio":"29.09","dpacode_provincia":"29","lon":-78.8132,"lat":21.7314,"abierto":false,"chequeado":true},"ecav-2":{"id":"ecav-2","identificador":"Consejo Popular Florencia","municipio":"Florencia","provincia":"Ciego de Ávila","dpacode_municipio":"29.06","dpacode_provincia":"29","lon":-79.0068,"lat":22.1505,"abierto":false,"chequeado":true},"ecav-3":{"id":"ecav-3","identificador":"Consejo Popular Turiguanó","municipio":"Morón","provincia":"Ciego de Ávila","dpacode_municipio":"29.02","dpacode_provincia":"29","lon":-78.615591,"lat":22.269206,"abierto":false,"chequeado":true},"ecav-4":{"id":"ecav-4","identificador":"Plan Hortícola","municipio":"Morón","provincia":"Ciego de Ávila","dpacode_municipio":"29.02","dpacode_provincia":"29","lon":-78.6031,"lat":22.1416,"abierto":false,"chequeado":true},"ecav-5":{"id":"ecav-5","identificador":"Consejo Popular 'Lugones'","municipio":"Ciego de Ávila","provincia":"Ciego de Ávila","dpacode_municipio":"29.08","dpacode_provincia":"29","lon":-78.769778,"lat":21.839021,"abierto":true,"chequeado":true},"ecam-1":{"id":"ecam-1","identificador":"Consejo popular Argentina","municipio":"Florida","provincia":"Camagüey","dpacode_municipio":"30.09","dpacode_provincia":"30","lon":-78.2185,"lat":21.5668,"abierto":false,"chequeado":true},"ecam-2":{"id":"ecam-2","identificador":"Consejo popular Buenos Aires-Bellavista","municipio":"Camagüey","provincia":"Camagüey","dpacode_municipio":"30.09","dpacode_provincia":"30","lon":-77.909095,"lat":21.412535,"abierto":false,"chequeado":false},"ehol-1":{"id":"ehol-1","identificador":"Gibara","municipio":"Gibara","provincia":"Holguín","dpacode_municipio":"32.01","dpacode_provincia":"32","lon":-76.128636,"lat":21.110501,"abierto":false,"chequeado":true},"ehol-2":{"id":"ehol-2","identificador":"Consejo Popular Nicaragua","municipio":"Banes","provincia":"Holguín","dpacode_municipio":"32.03","dpacode_provincia":"32","lon":-75.722647,"lat":20.940798,"abierto":false,"chequeado":true},"ehol-3":{"id":"ehol-3","identificador":"Reparto 26 de Julio","municipio":"Holguín","provincia":"Holguín","dpacode_municipio":"32.06","dpacode_provincia":"32","lon":-76.252168,"lat":20.870663,"abierto":false,"chequeado":false},"ehol-4":{"id":"ehol-4","identificador":"Avenida Cárdenas","municipio":"Banes","provincia":"Holguín","dpacode_municipio":"32.03","dpacode_provincia":"32","lon":-75.725901,"lat":20.961779,"abierto":false,"chequeado":true},"egtm-1":{"id":"egtm-1","identificador":"Baracoa","municipio":"Baracoa","provincia":"Guantánamo","dpacode_municipio":"35.04","dpacode_provincia":"35","lon":-74.511464,"lat":20.353737,"abierto":false,"chequeado":true},"eijv-1":{"id":"eijv-1","identificador":"Consejo Popular Pueblo Nuevo","municipio":"Isla de la Juventud","provincia":"Isla de la Juventud","dpacode_municipio":"40.01","dpacode_provincia":"40.01","lon":-82.811626,"lat":21.886638,"abierto":false,"chequeado":true},"eijv-3":{"id":"eijv-3","identificador":"Consejo Popular La Fé","municipio":"Isla de la Juventud","provincia":"Isla de la Juventud","dpacode_municipio":"40.01","dpacode_provincia":"40.01","lon":-82.753945,"lat":21.745226,"abierto":false,"chequeado":false},"estg-1":{"id":"estg-1","identificador":"Reparto Marimón","municipio":"Santiago de Cuba","provincia":"Santiago de cuba","dpacode_municipio":"34.06","dpacode_provincia":"34","lon":-75.850496,"lat":20.04742,"abierto":false,"chequeado":false},"estg-2":{"id":"estg-2","identificador":"Poblado de Boniato","municipio":"Santiago de Cuba","provincia":"Santiago de cuba","dpacode_municipio":"34.06","dpacode_provincia":"34","lon":-75.80381,"lat":20.081182,"abierto":false,"chequeado":false}}